[
    {
      "commonName": "Harrow & Wealdstone Underground Station",
      "lat": 51.592268,
      "lon": -0.335217,
      "id": "940GZZLUHAW"
    },
    {
      "commonName": "Kenton Underground Station",
      "lat": 51.581756,
      "lon": -0.31691,
      "id": "940GZZLUKEN"
    },
    {
      "commonName": "South Kenton Underground Station",
      "lat": 51.570232,
      "lon": -0.308433,
      "id": "940GZZLUSKT"
    },
    {
      "commonName": "North Wembley Underground Station",
      "lat": 51.562551,
      "lon": -0.304,
      "id": "940GZZLUNWY"
    },
    {
      "commonName": "Wembley Central Underground Station",
      "lat": 51.552304,
      "lon": -0.296852,
      "id": "940GZZLUWYC"
    },
    {
      "commonName": "Stonebridge Park Underground Station",
      "lat": 51.543959,
      "lon": -0.275892,
      "id": "940GZZLUSGP"
    },
    {
      "commonName": "Harlesden Underground Station",
      "lat": 51.53631,
      "lon": -0.257883,
      "id": "940GZZLUHSN"
    },
    {
      "commonName": "Willesden Junction Underground Station",
      "lat": 51.532259,
      "lon": -0.244283,
      "id": "940GZZLUWJN"
    },
    {
      "commonName": "Kensal Green Underground Station",
      "lat": 51.530539,
      "lon": -0.225016,
      "id": "940GZZLUKSL"
    },
    {
      "commonName": "Queen's Park Underground Station",
      "lat": 51.534158,
      "lon": -0.204574,
      "id": "940GZZLUQPS"
    },
    {
      "commonName": "Kilburn Park Underground Station",
      "lat": 51.534979,
      "lon": -0.194232,
      "id": "940GZZLUKPK"
    },
    {
      "commonName": "Maida Vale Underground Station",
      "lat": 51.529777,
      "lon": -0.185758,
      "id": "940GZZLUMVL"
    },
    {
      "commonName": "Warwick Avenue Underground Station",
      "lat": 51.523263,
      "lon": -0.183783,
      "id": "940GZZLUWKA"
    },
    {
      "commonName": "Paddington Underground Station",
      "lat": 51.516581,
      "lon": -0.175689,
      "id": "940GZZLUPAC"
    },
    {
      "commonName": "Edgware Road (Bakerloo) Underground Station",
      "lat": 51.520299,
      "lon": -0.17015,
      "id": "940GZZLUERB"
    },
    {
      "commonName": "Marylebone Underground Station",
      "lat": 51.522322,
      "lon": -0.163207,
      "id": "940GZZLUMYB"
    },
    {
      "commonName": "Baker Street Underground Station",
      "lat": 51.522883,
      "lon": -0.15713,
      "id": "940GZZLUBST"
    },
    {
      "commonName": "Regent's Park Underground Station",
      "lat": 51.523344,
      "lon": -0.146444,
      "id": "940GZZLURGP"
    },
    {
      "commonName": "Oxford Circus Underground Station",
      "lat": 51.515224,
      "lon": -0.141903,
      "id": "940GZZLUOXC"
    },
    {
      "commonName": "Piccadilly Circus Underground Station",
      "lat": 51.51005,
      "lon": -0.133798,
      "id": "940GZZLUPCC"
    },
    {
      "commonName": "Charing Cross Underground Station",
      "lat": 51.50741,
      "lon": -0.127277,
      "id": "940GZZLUCHX"
    },
    {
      "commonName": "Embankment Underground Station",
      "lat": 51.507058,
      "lon": -0.122666,
      "id": "940GZZLUEMB"
    },
    {
      "commonName": "Waterloo Underground Station",
      "lat": 51.503299,
      "lon": -0.11478,
      "id": "940GZZLUWLO"
    },
    {
      "commonName": "Lambeth North Underground Station",
      "lat": 51.498808,
      "lon": -0.112315,
      "id": "940GZZLULBN"
    },
    {
      "commonName": "Elephant & Castle Underground Station",
      "lat": 51.494536,
      "lon": -0.100606,
      "id": "940GZZLUEAC"
    }
]
  